Section,Institution,Type,Address,City,State,Zip,Latitude,Longitude,Enrollment,Campus Size,Suitability,Notes,,,
Within,Colorado Mesa University,4-Year University,"1100 North Ave, Grand Junction CO 81501",Grand Junction,CO,81501,39.07761,-108.55421,10000,141,,"141-acre campus with Academic Quad and Elm Avenue Quad, multiple walkable areas",,,
Within,Colorado State University Pueblo,4-Year University,"2200 Bonforte Blvd, Pueblo CO 81001",Pueblo,CO,81001,38.308547,-104.57707,5000,275,,275-acre campus with Modern Aztec architecture and walkable areas,,,
Within,Fort Lewis College,4-Year University,"1000 Rim Dr, Durango CO 81301",Durango,CO,81301,37.274349,-107.86994,3320,247,,247-acre mesa-top campus with Student Union Building and walkable areas,,,
Within,Colorado Mountain College - Glenwood Springs,Community College,"3000 County Rd 114, Glenwood Springs CO 81601",Glenwood Springs,CO,81601,39.471454,-107.23837,1500,10,,Spring Valley campus with student gathering areas,,,
Within,Pueblo Community College,Community College,"900 W Orman Ave, Pueblo CO 81004",Pueblo,CO,81004,38.262262,-104.63751,6000,33,,Multi-campus community college with student areas,,,
Near,Western Colorado University,4-Year University,"600 N Adams St, Gunnison CO 81231",Gunnison,CO,81231,38.549026,-106.9188,3500,125,,Mountain campus with student gathering areas,,,
Near,University of Colorado Colorado Springs,4-Year University,"1420 Austin Bluffs Pkwy, Colorado Springs CO 80918",Colorado Springs,CO,80918,38.894935,-104.80039,12000,520,,Campus with student center and walkable areas,,,
Near,Colorado College,4-Year University,"14 E Cache La Poudre St, Colorado Springs CO 80903",Colorado Springs,CO,80903,38.846878,-104.82372,2200,100,,Liberal arts campus with quad areas and walkable spaces,,,
,,,,,,,,,,,,,,,