Section,Institution,Type,Address,City,State,Zip,Latitude,Longitude,Enrollment,Campus Size,Suitability,Notes
Within,Macomb Community College - South Campus,Community College,"14500 E 12 Mile Road, Warren, MI 48088",Warren,MI,48088,42.508218,-82.976056,22537,384,,Large community college with multiple campuses and extensive quad areas
Within,Macomb Community College - Center Campus,Community College,"44575 Garfield Road, Clinton Township, MI 48038",Clinton Township,MI,48038,42.617915,-82.958266,22537,384,,Major campus with University Center and outdoor gathering spaces
Within,Oakland University,Public University,"2200 N Squirrel Road, Rochester, MI 48309",Rochester,MI,48309,42.671325,-83.210814,16108,1444,,Large public research university with extensive campus grounds and quads
Within,Oakland Community College - Auburn Hills Campus,Community College,"2900 Featherstone Road, Auburn Hills, MI 48326",Auburn Hills,MI,48326,42.643574,-83.228482,21975,100,,Multi-campus community college with outdoor spaces
Within,Oakland Community College - Royal Oak Campus,Community College,"739 S Washington Avenue, Royal Oak, MI 48067",Royal Oak,MI,48067,42.484078,-83.145311,21975,20,,Downtown campus with modern facilities
Near,St. Clair County Community College,Community College,"323 Erie Street, Port Huron, MI 48061",Port Huron,MI,48061,42.978189,-82.427936,3315,25,,Small community college with scenic Black River campus