Section,Institution,Type,Address,City,State,Zip,Latitude,Longitude,Enrollment,Campus Size,Suitability,Notes
Within,College of Southern Nevada - North Las Vegas Campus,Community College,"3200 E Cheyenne Ave, North Las Vegas, NV 89030",North Las Vegas,NV,89030,36.220229,-115.104858,3000,12,,Serves northern valley communities - Campus gathering areas and student services
Near,"University of Nevada, Las Vegas (UNLV)",4-Year University,"4505 S Maryland Pkwy, Las Vegas, NV 89154",Las Vegas,NV,89154,36.104596,-115.142067,30000,332,,"332-acre campus with Alumni Amphitheater, Student Union, expansive green spaces, Tree Campus USA"
Near,College of Southern Nevada - Charleston Campus,Community College,"6375 W Charleston Blvd, Las Vegas, NV 89146",Las Vegas,NV,89146,36.159003,-115.233555,3000,8,,Main campus of largest college system in Nevada - Main campus with central student gathering areas and union facilities
Near,Nevada State University,4-Year University,"1300 Nevada State Dr, Henderson, NV 89002",Henderson,NV,89002,35.982293,-114.936255,7115,510,,"Renamed in 2023, focus on career readiness - Campus gathering areas, Marydean Martin Library, fitness center"
Near,College of Southern Nevada - Henderson Campus,Community College,"700 College Dr, Henderson, NV 89002",Henderson,NV,89002,36.006146,-114.965383,3000,8,,Serves southeastern valley communities - Campus gathering areas and student centers