Section,Institution,Type,Address,City,State,Zip,Latitude,Longitude,Enrollment,Suitability,Phone,Website,Notes
Within,Texas A&M International University,Public University,5201 University Boulevard Laredo TX 78041,Laredo,TX,78041,27.5749,-99.435188,8500,High,(956) 326-2001,tamiu.edu,Main campus with quad areas; 8500 students; 300-acre campus; serves Webb County
Within,Laredo College,Community College,1 West End Washington Street Laredo TX 78040,Laredo,TX,78040,27.507073,-99.519414,9292,High,(956) 722-0521,laredo.edu,Multiple campuses; 9292 students; 200-acre campus; strong community college
Within,South Texas College - Starr County Campus,Community College,142 FM 3167 Rio Grande City TX 78582,Rio Grande City,TX,78582,26.385979,-98.856692,26000,High,(956) 488-5801,southtexascollege.edu,Regional campus serving Starr County; part of 26000-student STC system
Within,South Texas College - Pecan Campus,Community College,3201 West Pecan Boulevard McAllen TX 78501,McAllen,TX,78501,26.220876,-98.255188,37297,High,(956) 872-8311,southtexascollege.edu,Main STC campus now within redrawn TX-28; 37297 students across system; massive voter target
Near,UTRGV - Edinburg Campus,Public University,1201 West University Drive Edinburg TX 78539,Edinburg,TX,78539,26.303244,-98.174322,34343,High,(956) 665-2011,utrgv.edu,Major university just outside district; 34343 students; 776-acre campus
Near,Texas A&M University-San Antonio,Public University,One University Way San Antonio TX 78224,San Antonio,TX,78224,29.303349,-98.524607,7000,Medium,(210) 784-1000,tamusa.edu,Growing campus near northern edge of district; 7000 students; 694-acre campus
