Section,Institution,Type,Address,City,State,Zip,Latitude,Longitude,Enrollment,Campus Size,Suitability,Notes
Within,Northern Virginia Community College - Loudoun Campus,Community College,"21200 Campus Drive, Sterling, VA 20164",Sterling,VA,20164,39.028749,-77.391916,8500,93,,State-of-the-art facilities with science labs and theater
Within,Northern Virginia Community College - Manassas Campus,Community College,"6901 Sudley Road, Manassas, VA 20109",Manassas,VA,20109,38.807869,-77.522569,5500,100,,Located next to Manassas National Battlefield
Within,George Mason University - Science and Technology Campus,Public University,"10900 University Boulevard, Manassas, VA 20110",Manassas,VA,20110,38.754343,-77.520589,4500,134,,Focus on STEM programs and research facilities
Near,Northern Virginia Community College - Annandale Campus,Community College,"8333 Little River Turnpike, Annandale, VA 22003",Annandale,VA,22003,38.834721,-77.23385,15000,78,,Largest NOVA campus serving Northern Virginia
Near,George Mason University - Fairfax Campus,Public University,"4400 University Drive, Fairfax, VA 22030",Fairfax,VA,22030,38.8344,-77.310794,27000,677,,Main campus with comprehensive programs
Near,Northern Virginia Community College - Woodbridge Campus,Community College,"2645 College Drive, Woodbridge, VA 22191",Woodbridge,VA,22191,38.618557,-77.293368,11000,109,,Serves eastern Prince William County
Near,Laurel Ridge Community College - Fauquier Campus,Community College,"6480 College Street, Warrenton, VA 20187",Warrenton,VA,20187,38.682062,-77.78313,2500,40,,Formerly Lord Fairfax Community College
Near,Northern Virginia Community College - Alexandria Campus,Community College,"3001 North Beauregard Street, Alexandria, VA 22311",Alexandria,VA,22311,38.837224,-77.114194,9000,51,,Serves Alexandria and Arlington areas